[
    {
        "name": "Ouyoun el Samak Lake",
        "category": "Lakes",
        "city": "Akkar",
        "state": "Lebanon",
        "id": 1003,
        "isFeatured": true,
        "isFavorite": false,
        "park": "",
        "coordinates": {
            "longitude": 36.013129,
            "latitude": 34.439768
        },
        "imageName": "Ouyoun-samak-lake"
    },
    {
        "name": "Chouwan Lake",
        "category": "Lakes",
        "city": "Chouaneh",
        "state": "Lebanon",
        "id": 1001,
        "isFeatured": false,
        "isFavorite": true,
        "park": "Jabla Mousa",
        "coordinates": {
            "longitude": 35.771895,
            "latitude": 34.078691
        },
        "imageName": "chouwan-lake"
    },
    {
        "name": "Chabrouh Lake",
        "category": "Lakes",
        "city": "Faraya",
        "state": "Lebanon",
        "id": 1002,
        "isFeatured": false,
        "isFavorite": true,
        "park": "",
        "coordinates": {
            "longitude": 35.835417,
            "latitude":  34.033378
        },
        "imageName": "chabrouh-lake"
    },
    
    
    {
              "name": "Oyoun Orghoch Lake",
              "category": "Lakes",
              "city": "Baalbak",
              "state": "Lebanon",
              "id": 1004,
              "isFeatured": false,
              "isFavorite": false,
              "park": "",
              "coordinates": {
                  "longitude": 36.128475,
                  "latitude": 34.259848
              },
              "imageName": "oyoun-orghoch"
          },
    
    {
        "name": "Taanayel lake",
        "category": "Lakes",
        "city": "Bikaa",
        "state": "Lebanon",
        "id": 1005,
        "isFeatured": false,
        "isFavorite": true,
        "park": "Taanayel Park",
        "coordinates": {
            "longitude": 35.866901,
            "latitude": 33.792581
        },
        "imageName": "taanayel-lake"
    },
    {
        "name": "Bnachii Lake",
        "category": "Lakes",
        "city": "Kafaaraka",
        "state": "Lebanon",
        "id": 1006,
        "isFeatured": false,
        "isFavorite": false,
        "park": "",
        "coordinates": {
            "longitude": 35.886222,
            "latitude": 34.334271
        },
        "imageName": "bnachi-lake"
    },
    
    {
          "name": "Yahchouch River",
          "category": "Rivers",
          "city": "Yahchouch",
          "state": "Lebanon",
          "id": 1007,
          "isFeatured": false,
          "isFavorite": false,
          "park": "",
          "coordinates": {
              "longitude": 35.737462,
              "latitude": 34.066627
          },
          "imageName": "yahchouch-river"
      },
    

    
    {
        "name": "Turtle Rock",
        "category": "Rivers",
        "city": "Twentynine Palms",
        "state": "California",
        "id": 1009,
        "isFeatured": false,
        "isFavorite": true,
        "park": "Joshua Tree National Park",
        "coordinates": {
            "longitude": -116.166868,
            "latitude": 34.011286
        },
        "imageName": "turtlerock"
    },
    {
        "name": "Silver Salmon Creek",
        "category": "Lakes",
        "city": "Port Alsworth",
        "state": "Alaska",
        "id": 1010,
        "isFeatured": false,
        "isFavorite": false,
        "park": "Lake Clark National Park and Preserve",
        "coordinates": {
            "longitude": -152.665167,
            "latitude": 59.980167
        },
        "imageName": "silversalmoncreek"
    },
    {
        "name": "Chilkoot Trail",
        "category": "Mountains",
        "city": "Skagway",
        "state": "Alaska",
        "id": 1011,
        "isFeatured": false,
        "isFavorite": true,
        "park": "Klondike Gold Rush National Historical Park",
        "coordinates": {
            "longitude": -135.334571,
            "latitude": 59.560551
        },
        "imageName": "chilkoottrail"
    },
    {
        "name": "St. Mary Lake",
        "category": "Lakes",
        "city": "Browning",
        "state": "Montana",
        "id": 1012,
        "isFeatured": true,
        "isFavorite": true,
        "park": "Glacier National Park",
        "coordinates": {
            "longitude": -113.536248,
            "latitude": 48.69423
        },
        "imageName": "stmarylake"
    },
    {
        "name": "Twin Lake",
        "category": "Lakes",
        "city": "Twin Lakes",
        "state": "Alaska",
        "id": 1013,
        "isFeatured": false,
        "isFavorite": false,
        "park": "Lake Clark National Park and Preserve",
        "coordinates": {
            "longitude": -153.849883,
            "latitude": 60.641684
        },
        "imageName": "twinlake"
    },
    {
        "name": "Lake McDonald",
        "category": "Mountains",
        "city": "West Glacier",
        "state": "Montana",
        "id": 1014,
        "isFeatured": false,
        "isFavorite": false,
        "park": "Glacier National Park",
        "coordinates": {
            "longitude": -113.934831,
            "latitude": 48.56002
        },
        "imageName": "lakemcdonald"
    },
    {
        "name": "Charley Rivers",
        "category": "Rivers",
        "city": "Eaking",
        "state": "Alaska",
        "id": 1015,
        "isFeatured": true,
        "isFavorite": false,
        "park": "Charley Rivers National Preserve",
        "coordinates": {
            "longitude": -143.122586,
            "latitude": 65.350021
        },
        "imageName": "charleyrivers",
    },
    {
        "name": "Icy Bay",
        "category": "Mountains",
        "city": "Icy Bay",
        "state": "Alaska",
        "id": 1016,
        "isFeatured": false,
        "isFavorite": false,
        "park": "Wrangell-St. Elias National Park and Preserve",
        "coordinates": {
            "longitude": -141.518167,
            "latitude": 60.089917
        },
        "imageName": "icybay"
    },
    {
        "name": "Rainbow Lake",
        "category": "Lakes",
        "city": "Willow",
        "state": "Alaska",
        "id": 1017,
        "isFeatured": false,
        "isFavorite": false,
        "park": "State Recreation Area",
        "coordinates": {
            "longitude": -150.086103,
            "latitude": 61.694334
        },
        "imageName": "rainbowlake"
    },
    {
        "name": "Hidden Lake",
        "category": "Lakes",
        "city": "Newhalem",
        "state": "Washington",
        "id": 1018,
        "isFeatured": false,
        "isFavorite": false,
        "park": "North Cascades National Park",
        "coordinates": {
            "longitude": -121.17799,
            "latitude": 48.495442
        },
        "imageName": "hiddenlake"
    },
    {
        "name": "Chincoteague",
        "category": "Rivers",
        "city": "Chincoteague",
        "state": "Virginia",
        "id": 1019,
        "isFeatured": false,
        "isFavorite": false,
        "park": "Chincoteague National Wildlife Refuge",
        "coordinates": {
            "longitude": -75.383212,
            "latitude": 37.91531
        },
        "imageName": "chincoteague"
    },
    {
        "name": "Lake Umbagog",
        "category": "Lakes",
        "city": "Errol",
        "state": "New Hampshire",
        "id": 1020,
        "isFeatured": true,
        "isFavorite": false,
        "park": "Umbagog National Wildlife Refuge",
        "coordinates": {
            "longitude": -71.056816,
            "latitude": 44.747408
        },
        "imageName": "umbagog"
    }
    
]
